[{"id":172,"nodeId":"person:172","type":"PERSON","slug":"vladimir-putin","fullName":"Vladimir Putin","photoUrl":"vladimir_putin.jpg","companyName":null,"countryLat":55.755800,"countryLng":37.617300,"compositeScore":81.00,"title":"President of Russia","globalRank":1,"archetypeCode":"COERCIVE","influenceDomain":null,"citizenship":"Russian","born":"1952-10-07","netWorthUsd":null},{"id":171,"nodeId":"person:171","type":"PERSON","slug":"xi-jinping","fullName":"Xi Jinping","photoUrl":"Xi_Jinping.jpg","companyName":null,"countryLat":39.904200,"countryLng":116.407400,"compositeScore":79.00,"title":"President of China","globalRank":2,"archetypeCode":"POLITICAL","influenceDomain":null,"citizenship":"Chinese","born":"1953-06-15","netWorthUsd":null},{"id":176,"nodeId":"person:176","type":"PERSON","slug":"mohammed-bin-salman-al-saud","fullName":"Mohammed bin Salman Al Saud","photoUrl":"mbs.jpg","companyName":null,"countryLat":24.687700,"countryLng":46.721900,"compositeScore":78.00,"title":"Crown Prince & PM of Saudi Arabia","globalRank":3,"archetypeCode":"COERCIVE","influenceDomain":null,"citizenship":"Saudi","born":"1985-08-31","netWorthUsd":null},{"id":173,"nodeId":"person:173","type":"PERSON","slug":"donald-trump","fullName":"Donald Trump","photoUrl":"Trump.jpg","companyName":null,"countryLat":38.895100,"countryLng":-77.036400,"compositeScore":76.00,"title":"President of the United States","globalRank":4,"archetypeCode":"POLITICAL","influenceDomain":null,"citizenship":"American","born":"1946-06-14","netWorthUsd":null},{"id":7,"nodeId":"person:7","type":"PERSON","slug":"elon-musk","fullName":"Elon Musk","photoUrl":"Musk.jpeg","companyName":"Tesla","countryLat":38.895100,"countryLng":-77.036400,"compositeScore":74.00,"title":"CEO of Tesla","globalRank":5,"archetypeCode":"HYBRID","influenceDomain":"TECH + POLITICS + MEDIA","citizenship":"USA","born":null,"netWorthUsd":852000000000},{"id":75,"nodeId":"person:75","type":"PERSON","slug":"larry-fink","fullName":"Larry Fink","photoUrl":"Fink.jpg","companyName":"BlackRock","countryLat":38.895100,"countryLng":-77.036400,"compositeScore":72.00,"title":"Co-founder & CEO","globalRank":6,"archetypeCode":"FINANCIAL","influenceDomain":null,"citizenship":"American","born":"1952-11-02","netWorthUsd":null},{"id":67,"nodeId":"person:67","type":"PERSON","slug":"bill-gates","fullName":"Bill Gates","photoUrl":"Gates.jpg","companyName":"Microsoft","countryLat":38.895100,"countryLng":-77.036400,"compositeScore":71.00,"title":"Co-founder","globalRank":7,"archetypeCode":"FINANCIAL","influenceDomain":null,"citizenship":"American","born":"1955-10-28","netWorthUsd":null},{"id":1,"nodeId":"person:1","type":"PERSON","slug":"jensen-huang","fullName":"Jensen Huang","photoUrl":"Huang.jpeg","companyName":"NVIDIA","countryLat":38.895100,"countryLng":-77.036400,"compositeScore":68.00,"title":"CEO of NVIDIA","globalRank":8,"archetypeCode":"TECHNOLOGICAL","influenceDomain":null,"citizenship":"USA","born":null,"netWorthUsd":null},{"id":543,"nodeId":"person:543","type":"PERSON","slug":"narendra-modi","fullName":"Narendra Modi","photoUrl":"narendra.jpg","companyName":null,"countryLat":28.613900,"countryLng":77.209000,"compositeScore":64.00,"title":"Prime Minister of India","globalRank":9,"archetypeCode":"POLITICAL","influenceDomain":"Political/Industrial","citizenship":"Indian","born":"1950-09-17","netWorthUsd":null},{"id":192,"nodeId":"person:192","type":"PERSON","slug":"jerome-powell","fullName":"Jerome Powell","photoUrl":"Powell.jpg","companyName":null,"countryLat":38.895100,"countryLng":-77.036400,"compositeScore":62.00,"title":"Federal Reserve Chair","globalRank":10,"archetypeCode":"POLITICAL","influenceDomain":null,"citizenship":"American","born":"1953-02-04","netWorthUsd":null},{"id":191,"nodeId":"person:191","type":"PERSON","slug":"christine-lagarde","fullName":"Christine Lagarde","photoUrl":"Lagarde.jpg","companyName":null,"countryLat":48.856600,"countryLng":2.352200,"compositeScore":58.00,"title":"President of the ECB","globalRank":11,"archetypeCode":"POLITICAL","influenceDomain":null,"citizenship":"French","born":"1956-01-01","netWorthUsd":null},{"id":545,"nodeId":"person:545","type":"PERSON","slug":"scott-bessent","fullName":"Scott Bessent","photoUrl":"Bessent.jpg","companyName":null,"countryLat":38.895100,"countryLng":-77.036400,"compositeScore":58.00,"title":"U.S. Secretary of the Treasury","globalRank":12,"archetypeCode":"FINANCIAL","influenceDomain":"Finance","citizenship":"American","born":null,"netWorthUsd":null},{"id":34,"nodeId":"person:34","type":"PERSON","slug":"guillaume-faury","fullName":"Guillaume Faury","photoUrl":"Faury.jpeg","companyName":"Airbus","countryLat":48.856600,"countryLng":2.352200,"compositeScore":56.00,"title":"CEO of Airbus","globalRank":13,"archetypeCode":"INDUSTRIAL","influenceDomain":null,"citizenship":"FRA","born":null,"netWorthUsd":null},{"id":61,"nodeId":"person:61","type":"PERSON","slug":"sam-altman","fullName":"Sam Altman","photoUrl":"Altman.png","companyName":"OpenAI","countryLat":38.895100,"countryLng":-77.036400,"compositeScore":55.00,"title":"CEO & Co-founder","globalRank":14,"archetypeCode":"TECHNOLOGICAL","influenceDomain":null,"citizenship":"American","born":"1985-04-22","netWorthUsd":null},{"id":174,"nodeId":"person:174","type":"PERSON","slug":"emmanuel-macron","fullName":"Emmanuel Macron","photoUrl":"emmanuel_macron.jpg","companyName":null,"countryLat":48.856600,"countryLng":2.352200,"compositeScore":53.00,"title":"President of France","globalRank":null,"archetypeCode":"POLITICAL","influenceDomain":null,"citizenship":"French","born":"1977-12-21","netWorthUsd":null}]